[
    {"name": "ANCASTER, ON", "lat": 43.208403637510074, "lng": -80.00156466550729, "tanker": "$380.00", "large": "$210.00", "small": "$145.00"},
    {"name": "CAMPBELL RD, BRANT , ON", "lat": 43.11818099116935, "lng": -80.15721304816559, "tanker": "$380.00", "large": "$210.00", "small": "$145.00"},
    {"name": "COPETOWN ,ON", "lat": 43.24342452280722, "lng": -80.05606622366506, "tanker": "$380.00", "large": "$210.00", "small": "$145.00"},
    {"name": "GREENVILLE, ON", "lat": 43.29021524607139, "lng": -79.99744108498082, "tanker": "$380.00", "large": "$210.00", "small": "$145.00"},
    {"name": "LYNDEN , ON", "lat": 43.23865949494436, "lng": -80.1474655185296, "tanker": "$380.00", "large": "$210.00", "small": "$145.00"},
    {"name": "JOHNSON RD, BRANTFORD, ON", "lat": 43.163830852096936, "lng": -80.19013824992356, "tanker": "$380.00", "large": "$210.00", "small": "$145.00"},
    {"name": "OLD ONONDAGA RD , BRANT", "lat": 43.14415547202697, "lng": -80.19547165843922, "tanker": "$380.00", "large": "$210.00", "small": "$145.00"},
    {"name": "ORKNEY, TROY , ON", "lat": 43.26503788799861, "lng": -80.09356555397292, "tanker": "$380.00", "large": "$210.00", "small": "$145.00"},
    {"name": "McBAY RD, BRANTORD", "lat": 43.14269431693069, "lng": -80.13316368660021, "tanker": "$380.00", "large": "$210.00", "small": "$145.00"},
    {"name": "MT. HOPE", "lat": 43.15781620083939, "lng": -79.91388335361762, "tanker": "$405.00", "large": "$215.00", "small": "$155.00"},
    {"name": "ST. GEORGE", "lat": 43.24585144435047, "lng": -80.25348483424686, "tanker": "$405.00", "large": "$215.00", "small": "$155.00"},
    {"name": "CALEDONIA", "lat": 43.06425557662927, "lng": -79.95304366036511, "tanker": "$415.00", "large": "$230.00", "small": "$165.00"},
    {"name": "5TH/6TH CONCESSION", "lat": 43.015285904703774, "lng": -79.93548268316707, "tanker": "$415.00", "large": "$230.00", "small": "$165.00"},
    {"name": "BRANTFORD", "lat": 43.14835261456862, "lng": -80.21020810936454, "tanker": "$425.00", "large": "$250.00", "small": "$165.00"},
    {"name": "DUNDAS", "lat": 43.27455784999205, "lng": -79.942119130249, "tanker": "$425.00", "large": "$250.00", "small": "$165.00"},
    {"name": "HAMILTON MTN", "lat": 43.19201333935206, "lng": -79.86693144588872, "tanker": "$425.00", "large": "$250.00", "small": "$165.00"},
    {"name": "STONEY CREEK MTN", "lat": 43.19201333935206, "lng": -79.86693144588872, "tanker": "$425.00", "large": "$250.00", "small": "$165.00"},
    {"name": "WATERDOWN", "lat": 43.327527456441956, "lng": -79.9115634061207, "tanker": "$425.00", "large": "$250.00", "small": "$165.00"},
    {"name": "BINBROOK", "lat": 43.1210099934041, "lng": -79.80696084254048, "tanker": "$465.00", "large": "$260.00", "small": "$180.00"},
    {"name": "CARILSE", "lat": 43.39841565925941, "lng": -79.9742609841714, "tanker": "$465.00", "large": "$260.00", "small": "$180.00"},
    {"name": "7TH/8TH CONCESSION", "lat": 43.39841565925941, "lng": -79.9742609841714, "tanker": "$465.00", "large": "$260.00", "small": "$180.00"},
    {"name": "FREELTON", "lat": 43.39673333719593, "lng": -80.03826548731175, "tanker": "$465.00", "large": "$260.00", "small": "$180.00"},
    {"name": "SAFARI RD", "lat": 43.39673333719593, "lng": -80.03826548731175, "tanker": "$465.00", "large": "$260.00", "small": "$180.00"},
    {"name": "BURLINGTON", "lat": 43.33483491470084, "lng": -79.79862620272567, "tanker": "$545.00", "large": "$350.00", "small": "$350.00"},
    {"name": "HAMILTON DT", "lat": 43.26812367630497, "lng": -79.86179758634854, "tanker": "$545.00", "large": "$350.00", "small": "$350.00"},
    {"name": "STONEY CREEK DT", "lat": 43.235136259979285, "lng": -79.71360788811349, "tanker": "$545.00", "large": "$350.00", "small": "$350.00"},
    {"name": "CAMPBELLVILLE", "lat": 43.48950829849577, "lng": -79.98830040725562, "tanker": "$605.00", "large": "$375.00", "small": "$375.00"},
    {"name": "CAMBRIDGE", "lat": 43.40301819004336, "lng": -80.32847066351918, "tanker": "$605.00", "large": "$375.00", "small": "$375.00"},
    {"name": "KILBRIDE", "lat": 43.42400928844954, "lng": -79.93596137360397, "tanker": "$605.00", "large": "$375.00", "small": "$375.00"},
    {"name": "WINONA", "lat": 43.20767467091038, "lng": -79.65063892550187, "tanker": "$705.00", "large": "$525.00", "small": "$525.00"},
    {"name": "OAKVILLE", "lat": 43.47607581740639, "lng": -79.68034564110752, "tanker": "$805.00", "large": "$565.00", "small": "$565.00"}
]
